header:
  stamp:
    sec: 1013
    nanosec: 133000000
  frame_id: odom
child_frame_id: base_footprint
pose:
  pose:
    position:
      x: 0.07052464077874022
      y: -0.3696136342110966
      z: 0.008528492377136265
    orientation:
      x: 0.0021600627599170784
      y: 0.0018864834178207394
      z: -0.7513926237509981
      w: 0.6598491496408696
  covariance:
  - 1.0e-05
  - 0.0
  - 0.0
  - 0.0
  - 0.0
  - 0.0
  - 0.0
  - 1.0e-05
  - 0.0
  - 0.0
  - 0.0
  - 0.0
  - 0.0
  - 0.0
  - 1000000000000.0
  - 0.0
  - 0.0
  - 0.0
  - 0.0
  - 0.0
  - 0.0
  - 1000000000000.0
  - 0.0
  - 0.0
  - 0.0
  - 0.0
  - 0.0
  - 0.0
  - 1000000000000.0
  - 0.0
  - 0.0
  - 0.0
  - 0.0
  - 0.0
  - 0.0
  - 0.001
twist:
  twist:
    linear:
      x: -2.1395136705019078e-05
      y: 0.000167213689436166
      z: 0.0
    angular:
      x: 0.0
      y: 0.0
      z: 4.8816885727725405e-05
  covariance:
  - 1.0e-05
  - 0.0
  - 0.0
  - 0.0
  - 0.0
  - 0.0
  - 0.0
  - 1.0e-05
  - 0.0
  - 0.0
  - 0.0
  - 0.0
  - 0.0
  - 0.0
  - 1000000000000.0
  - 0.0
  - 0.0
  - 0.0
  - 0.0
  - 0.0
  - 0.0
  - 1000000000000.0
  - 0.0
  - 0.0
  - 0.0
  - 0.0
  - 0.0
  - 0.0
  - 1000000000000.0
  - 0.0
  - 0.0
  - 0.0
  - 0.0
  - 0.0
  - 0.0
  - 0.001
---
header:
  stamp:
    sec: 1013
    nanosec: 167000000
  frame_id: odom
child_frame_id: base_footprint
pose:
  pose:
    position:
      x: 0.07052462800097455
      y: -0.3696136263120024
      z: 0.00853453702714697
    orientation:
      x: 0.002159833318538527
      y: 0.001886280790778006
      z: -0.7513922817935478
      w: 0.6598495403695452
  covariance:
  - 1.0e-05
  - 0.0
  - 0.0
  - 0.0
  - 0.0
  - 0.0
  - 0.0
  - 1.0e-05
  - 0.0
  - 0.0
  - 0.0
  - 0.0
  - 0.0
  - 0.0
  - 1000000000000.0
  - 0.0
  - 0.0
  - 0.0
  - 0.0
  - 0.0
  - 0.0
  - 1000000000000.0
  - 0.0
  - 0.0
  - 0.0
  - 0.0
  - 0.0
  - 0.0
  - 1000000000000.0
  - 0.0
  - 0.0
  - 0.0
  - 0.0
  - 0.0
  - 0.0
  - 0.001
twist:
  twist:
    linear:
      x: -2.262275958424962e-05
      y: 0.00020331580508379426
      z: 0.0
    angular:
      x: 0.0
      y: 0.0
      z: 4.300572036815704e-05
  covariance:
  - 1.0e-05
  - 0.0
  - 0.0
  - 0.0
  - 0.0
  - 0.0
  - 0.0
  - 1.0e-05
  - 0.0
  - 0.0
  - 0.0
  - 0.0
  - 0.0
  - 0.0
  - 1000000000000.0
  - 0.0
  - 0.0
  - 0.0
  - 0.0
  - 0.0
  - 0.0
  - 1000000000000.0
  - 0.0
  - 0.0
  - 0.0
  - 0.0
  - 0.0
  - 0.0
  - 1000000000000.0
  - 0.0
  - 0.0
  - 0.0
  - 0.0
  - 0.0
  - 0.0
  - 0.001
---
header:
  stamp:
    sec: 1013
    nanosec: 201000000
  frame_id: odom
child_frame_id: base_footprint
pose:
  pose:
    position:
      x: 0.07052464973911984
      y: -0.3696135968641694
      z: 0.008526866008914379
    orientation:
      x: 0.0021590114175457985
      y: 0.0018855601084731102
      z: -0.7513919283992507
      w: 0.6598499475405235
  covariance:
  - 1.0e-05
  - 0.0
  - 0.0
  - 0.0
  - 0.0
  - 0.0
  - 0.0
  - 1.0e-05
  - 0.0
  - 0.0
  - 0.0
  - 0.0
  - 0.0
  - 0.0
  - 1000000000000.0
  - 0.0
  - 0.0
  - 0.0
  - 0.0
  - 0.0
  - 0.0
  - 1000000000000.0
  - 0.0
  - 0.0
  - 0.0
  - 0.0
  - 0.0
  - 0.0
  - 1000000000000.0
  - 0.0
  - 0.0
  - 0.0
  - 0.0
  - 0.0
  - 0.0
  - 0.001
twist:
  twist:
    linear:
      x: -2.4245548800802863e-05
      y: 0.0001699674341167297
      z: 0.0
    angular:
      x: 0.0
      y: 0.0
      z: 5.247488760693313e-05
  covariance:
  - 1.0e-05
  - 0.0
  - 0.0
  - 0.0
  - 0.0
  - 0.0
  - 0.0
  - 1.0e-05
  - 0.0
  - 0.0
  - 0.0
  - 0.0
  - 0.0
  - 0.0
  - 1000000000000.0
  - 0.0
  - 0.0
  - 0.0
  - 0.0
  - 0.0
  - 0.0
  - 1000000000000.0
  - 0.0
  - 0.0
  - 0.0
  - 0.0
  - 0.0
  - 0.0
  - 1000000000000.0
  - 0.0
  - 0.0
  - 0.0
  - 0.0
  - 0.0
  - 0.0
  - 0.001
---
header:
  stamp:
    sec: 1013
    nanosec: 235000000
  frame_id: odom
child_frame_id: base_footprint
pose:
  pose:
    position:
      x: 0.07052465310607897
      y: -0.3696135871465598
      z: 0.008530237002146428
    orientation:
      x: 0.002158674947212054
      y: 0.0018852662791738182
      z: -0.7513915860817126
      w: 0.6598503392884913
  covariance:
  - 1.0e-05
  - 0.0
  - 0.0
  - 0.0
  - 0.0
  - 0.0
  - 0.0
  - 1.0e-05
  - 0.0
  - 0.0
  - 0.0
  - 0.0
  - 0.0
  - 0.0
  - 1000000000000.0
  - 0.0
  - 0.0
  - 0.0
  - 0.0
  - 0.0
  - 0.0
  - 1000000000000.0
  - 0.0
  - 0.0
  - 0.0
  - 0.0
  - 0.0
  - 0.0
  - 1000000000000.0
  - 0.0
  - 0.0
  - 0.0
  - 0.0
  - 0.0
  - 0.0
  - 0.001
twist:
  twist:
    linear:
      x: -2.9151779464746765e-05
      y: 0.00022362764268351966
      z: 0.0
    angular:
      x: 0.0
      y: 0.0
      z: 4.890127268342884e-05
  covariance:
  - 1.0e-05
  - 0.0
  - 0.0
  - 0.0
  - 0.0
  - 0.0
  - 0.0
  - 1.0e-05
  - 0.0
  - 0.0
  - 0.0
  - 0.0
  - 0.0
  - 0.0
  - 1000000000000.0
  - 0.0
  - 0.0
  - 0.0
  - 0.0
  - 0.0
  - 0.0
  - 1000000000000.0
  - 0.0
  - 0.0
  - 0.0
  - 0.0
  - 0.0
  - 0.0
  - 1000000000000.0
  - 0.0
  - 0.0
  - 0.0
  - 0.0
  - 0.0
  - 0.0
  - 0.001
---
header:
  stamp:
    sec: 1013
    nanosec: 269000000
  frame_id: odom
child_frame_id: base_footprint
pose:
  pose:
    position:
      x: 0.07052462995321537
      y: -0.3696135828940717
      z: 0.008533869452343561
    orientation:
      x: 0.0021586781880410535
      y: 0.0018852662607219968
      z: -0.7513912336185476
      w: 0.6598507406382172
  covariance:
  - 1.0e-05
  - 0.0
  - 0.0
  - 0.0
  - 0.0
  - 0.0
  - 0.0
  - 1.0e-05
  - 0.0
  - 0.0
  - 0.0
  - 0.0
  - 0.0
  - 0.0
  - 1000000000000.0
  - 0.0
  - 0.0
  - 0.0
  - 0.0
  - 0.0
  - 0.0
  - 1000000000000.0
  - 0.0
  - 0.0
  - 0.0
  - 0.0
  - 0.0
  - 0.0
  - 1000000000000.0
  - 0.0
  - 0.0
  - 0.0
  - 0.0
  - 0.0
  - 0.0
  - 0.001
twist:
  twist:
    linear:
      x: -2.518391189318789e-05
      y: 0.0002181752884279141
      z: 0.0
    angular:
      x: 0.0
      y: 0.0
      z: 4.5576762211253476e-05
  covariance:
  - 1.0e-05
  - 0.0
  - 0.0
  - 0.0
  - 0.0
  - 0.0
  - 0.0
  - 1.0e-05
  - 0.0
  - 0.0
  - 0.0
  - 0.0
  - 0.0
  - 0.0
  - 1000000000000.0
  - 0.0
  - 0.0
  - 0.0
  - 0.0
  - 0.0
  - 0.0
  - 1000000000000.0
  - 0.0
  - 0.0
  - 0.0
  - 0.0
  - 0.0
  - 0.0
  - 1000000000000.0
  - 0.0
  - 0.0
  - 0.0
  - 0.0
  - 0.0
  - 0.0
  - 0.001
---
header:
  stamp:
    sec: 1013
    nanosec: 303000000
  frame_id: odom
child_frame_id: base_footprint
pose:
  pose:
    position:
      x: 0.07052462124904704
      y: -0.3696135812917274
      z: 0.008534521378804746
    orientation:
      x: 0.002158859978056524
      y: 0.0018854182809412087
      z: -0.7513908840671031
      w: 0.6598511376533029
  covariance:
  - 1.0e-05
  - 0.0
  - 0.0
  - 0.0
  - 0.0
  - 0.0
  - 0.0
  - 1.0e-05
  - 0.0
  - 0.0
  - 0.0
  - 0.0
  - 0.0
  - 0.0
  - 1000000000000.0
  - 0.0
  - 0.0
  - 0.0
  - 0.0
  - 0.0
  - 0.0
  - 1000000000000.0
  - 0.0
  - 0.0
  - 0.0
  - 0.0
  - 0.0
  - 0.0
  - 1000000000000.0
  - 0.0
  - 0.0
  - 0.0
  - 0.0
  - 0.0
  - 0.0
  - 0.001
twist:
  twist:
    linear:
      x: -1.7314814528862548e-05
      y: 0.00017123367242454705
      z: 0.0
    angular:
      x: 0.0
      y: 0.0
      z: 4.2444999144255344e-05
  covariance:
  - 1.0e-05
  - 0.0
  - 0.0
  - 0.0
  - 0.0
  - 0.0
  - 0.0
  - 1.0e-05
  - 0.0
  - 0.0
  - 0.0
  - 0.0
  - 0.0
  - 0.0
  - 1000000000000.0
  - 0.0
  - 0.0
  - 0.0
  - 0.0
  - 0.0
  - 0.0
  - 1000000000000.0
  - 0.0
  - 0.0
  - 0.0
  - 0.0
  - 0.0
  - 0.0
  - 1000000000000.0
  - 0.0
  - 0.0
  - 0.0
  - 0.0
  - 0.0
  - 0.0
  - 0.001
---
header:
  stamp:
    sec: 1013
    nanosec: 337000000
  frame_id: odom
child_frame_id: base_footprint
pose:
  pose:
    position:
      x: 0.07052462120851116
      y: -0.3696135867262636
      z: 0.008531715760114383
    orientation:
      x: 0.0021592752605937814
      y: 0.0018857717255104215
      z: -0.7513905429242667
      w: 0.6598515237531276
  covariance:
  - 1.0e-05
  - 0.0
  - 0.0
  - 0.0
  - 0.0
  - 0.0
  - 0.0
  - 1.0e-05
  - 0.0
  - 0.0
  - 0.0
  - 0.0
  - 0.0
  - 0.0
  - 1000000000000.0
  - 0.0
  - 0.0
  - 0.0
  - 0.0
  - 0.0
  - 0.0
  - 1000000000000.0
  - 0.0
  - 0.0
  - 0.0
  - 0.0
  - 0.0
  - 0.0
  - 1000000000000.0
  - 0.0
  - 0.0
  - 0.0
  - 0.0
  - 0.0
  - 0.0
  - 0.001
twist:
  twist:
    linear:
      x: -1.9096336696866512e-05
      y: 0.0001639388607010747
      z: 0.0
    angular:
      x: 0.0
      y: 0.0
      z: 4.6054998539247385e-05
  covariance:
  - 1.0e-05
  - 0.0
  - 0.0
  - 0.0
  - 0.0
  - 0.0
  - 0.0
  - 1.0e-05
  - 0.0
  - 0.0
  - 0.0
  - 0.0
  - 0.0
  - 0.0
  - 1000000000000.0
  - 0.0
  - 0.0
  - 0.0
  - 0.0
  - 0.0
  - 0.0
  - 1000000000000.0
  - 0.0
  - 0.0
  - 0.0
  - 0.0
  - 0.0
  - 0.0
  - 1000000000000.0
  - 0.0
  - 0.0
  - 0.0
  - 0.0
  - 0.0
  - 0.0
  - 0.001
---
header:
  stamp:
    sec: 1013
    nanosec: 371000000
  frame_id: odom
child_frame_id: base_footprint
pose:
  pose:
    position:
      x: 0.07052462228820795
      y: -0.36961360242141533
      z: 0.008529534359717528
    orientation:
      x: 0.002160079206873212
      y: 0.0018864642266062776
      z: -0.7513901996575706
      w: 0.6598519100291352
  covariance:
  - 1.0e-05
  - 0.0
  - 0.0
  - 0.0
  - 0.0
  - 0.0
  - 0.0
  - 1.0e-05
  - 0.0
  - 0.0
  - 0.0
  - 0.0
  - 0.0
  - 0.0
  - 1000000000000.0
  - 0.0
  - 0.0
  - 0.0
  - 0.0
  - 0.0
  - 0.0
  - 1000000000000.0
  - 0.0
  - 0.0
  - 0.0
  - 0.0
  - 0.0
  - 0.0
  - 1000000000000.0
  - 0.0
  - 0.0
  - 0.0
  - 0.0
  - 0.0
  - 0.0
  - 0.001
twist:
  twist:
    linear:
      x: -2.0946312183383496e-05
      y: 0.0001652975875877366
      z: 0.0
    angular:
      x: 0.0
      y: 0.0
      z: 4.958339187170584e-05
  covariance:
  - 1.0e-05
  - 0.0
  - 0.0
  - 0.0
  - 0.0
  - 0.0
  - 0.0
  - 1.0e-05
  - 0.0
  - 0.0
  - 0.0
  - 0.0
  - 0.0
  - 0.0
  - 1000000000000.0
  - 0.0
  - 0.0
  - 0.0
  - 0.0
  - 0.0
  - 0.0
  - 1000000000000.0
  - 0.0
  - 0.0
  - 0.0
  - 0.0
  - 0.0
  - 0.0
  - 1000000000000.0
  - 0.0
  - 0.0
  - 0.0
  - 0.0
  - 0.0
  - 0.0
  - 0.001
---
header:
  stamp:
    sec: 1013
    nanosec: 405000000
  frame_id: odom
child_frame_id: base_footprint
pose:
  pose:
    position:
      x: 0.07052461069109166
      y: -0.36961362079167276
      z: 0.00853448856750481
    orientation:
      x: 0.00216080601380359
      y: 0.0018870894877064796
      z: -0.7513898479745763
      w: 0.6598523063317877
  covariance:
  - 1.0e-05
  - 0.0
  - 0.0
  - 0.0
  - 0.0
  - 0.0
  - 0.0
  - 1.0e-05
  - 0.0
  - 0.0
  - 0.0
  - 0.0
  - 0.0
  - 0.0
  - 1000000000000.0
  - 0.0
  - 0.0
  - 0.0
  - 0.0
  - 0.0
  - 0.0
  - 1000000000000.0
  - 0.0
  - 0.0
  - 0.0
  - 0.0
  - 0.0
  - 0.0
  - 1000000000000.0
  - 0.0
  - 0.0
  - 0.0
  - 0.0
  - 0.0
  - 0.0
  - 0.001
twist:
  twist:
    linear:
      x: -2.1660358688916323e-05
      y: 0.0002015421823111523
      z: 0.0
    angular:
      x: 0.0
      y: 0.0
      z: 4.1358266202616726e-05
  covariance:
  - 1.0e-05
  - 0.0
  - 0.0
  - 0.0
  - 0.0
  - 0.0
  - 0.0
  - 1.0e-05
  - 0.0
  - 0.0
  - 0.0
  - 0.0
  - 0.0
  - 0.0
  - 1000000000000.0
  - 0.0
  - 0.0
  - 0.0
  - 0.0
  - 0.0
  - 0.0
  - 1000000000000.0
  - 0.0
  - 0.0
  - 0.0
  - 0.0
  - 0.0
  - 0.0
  - 1000000000000.0
  - 0.0
  - 0.0
  - 0.0
  - 0.0
  - 0.0
  - 0.0
  - 0.001
---
header:
  stamp:
    sec: 1013
    nanosec: 439000000
  frame_id: odom
child_frame_id: base_footprint
pose:
  pose:
    position:
      x: 0.07052464763901146
      y: -0.36961361004387816
      z: 0.008526355935758512
    orientation:
      x: 0.0021605976362437736
      y: 0.0018868997161257466
      z: -0.7513895236775969
      w: 0.6598526768414824
  covariance:
  - 1.0e-05
  - 0.0
  - 0.0
  - 0.0
  - 0.0
  - 0.0
  - 0.0
  - 1.0e-05
  - 0.0
  - 0.0
  - 0.0
  - 0.0
  - 0.0
  - 0.0
  - 1000000000000.0
  - 0.0
  - 0.0
  - 0.0
  - 0.0
  - 0.0
  - 0.0
  - 1000000000000.0
  - 0.0
  - 0.0
  - 0.0
  - 0.0
  - 0.0
  - 0.0
  - 1000000000000.0
  - 0.0
  - 0.0
  - 0.0
  - 0.0
  - 0.0
  - 0.0
  - 0.001
twist:
  twist:
    linear:
      x: -2.6368606405318764e-05
      y: 0.0001933152763661441
      z: 0.0
    angular:
      x: 0.0
      y: 0.0
      z: 4.98120796892118e-05
  covariance:
  - 1.0e-05
  - 0.0
  - 0.0
  - 0.0
  - 0.0
  - 0.0
  - 0.0
  - 1.0e-05
  - 0.0
  - 0.0
  - 0.0
  - 0.0
  - 0.0
  - 0.0
  - 1000000000000.0
  - 0.0
  - 0.0
  - 0.0
  - 0.0
  - 0.0
  - 0.0
  - 1000000000000.0
  - 0.0
  - 0.0
  - 0.0
  - 0.0
  - 0.0
  - 0.0
  - 1000000000000.0
  - 0.0
  - 0.0
  - 0.0
  - 0.0
  - 0.0
  - 0.0
  - 0.001
---
header:
  stamp:
    sec: 1013
    nanosec: 473000000
  frame_id: odom
child_frame_id: base_footprint
pose:
  pose:
    position:
      x: 0.07052461683508679
      y: -0.3696135910130029
      z: 0.008528989132209496
    orientation:
      x: 0.0021600890051700875
      y: 0.001886452872848029
      z: -0.751389171260369
      w: 0.6598530810898015
  covariance:
  - 1.0e-05
  - 0.0
  - 0.0
  - 0.0
  - 0.0
  - 0.0
  - 0.0
  - 1.0e-05
  - 0.0
  - 0.0
  - 0.0
  - 0.0
  - 0.0
  - 0.0
  - 1000000000000.0
  - 0.0
  - 0.0
  - 0.0
  - 0.0
  - 0.0
  - 0.0
  - 1000000000000.0
  - 0.0
  - 0.0
  - 0.0
  - 0.0
  - 0.0
  - 0.0
  - 1000000000000.0
  - 0.0
  - 0.0
  - 0.0
  - 0.0
  - 0.0
  - 0.0
  - 0.001
twist:
  twist:
    linear:
      x: -2.0581450479860606e-05
      y: 0.0001640143591724698
      z: 0.0
    angular:
      x: 0.0
      y: 0.0
      z: 5.064179585435618e-05
  covariance:
  - 1.0e-05
  - 0.0
  - 0.0
  - 0.0
  - 0.0
  - 0.0
  - 0.0
  - 1.0e-05
  - 0.0
  - 0.0
  - 0.0
  - 0.0
  - 0.0
  - 0.0
  - 1000000000000.0
  - 0.0
  - 0.0
  - 0.0
  - 0.0
  - 0.0
  - 0.0
  - 1000000000000.0
  - 0.0
  - 0.0
  - 0.0
  - 0.0
  - 0.0
  - 0.0
  - 1000000000000.0
  - 0.0
  - 0.0
  - 0.0
  - 0.0
  - 0.0
  - 0.0
  - 0.001
---
header:
  stamp:
    sec: 1013
    nanosec: 507000000
  frame_id: odom
child_frame_id: base_footprint
pose:
  pose:
    position:
      x: 0.07052462633614695
      y: -0.36961358133380035
      z: 0.008530258349327989
    orientation:
      x: 0.0021597371538386026
      y: 0.0018861473170494654
      z: -0.7513888291728482
      w: 0.6598534726573628
  covariance:
  - 1.0e-05
  - 0.0
  - 0.0
  - 0.0
  - 0.0
  - 0.0
  - 0.0
  - 1.0e-05
  - 0.0
  - 0.0
  - 0.0
  - 0.0
  - 0.0
  - 0.0
  - 1000000000000.0
  - 0.0
  - 0.0
  - 0.0
  - 0.0
  - 0.0
  - 0.0
  - 1000000000000.0
  - 0.0
  - 0.0
  - 0.0
  - 0.0
  - 0.0
  - 0.0
  - 1000000000000.0
  - 0.0
  - 0.0
  - 0.0
  - 0.0
  - 0.0
  - 0.0
  - 0.001
twist:
  twist:
    linear:
      x: -2.9741959673686908e-05
      y: 0.0002338138915073454
      z: 0.0
    angular:
      x: 0.0
      y: 0.0
      z: 4.890069337158084e-05
  covariance:
  - 1.0e-05
  - 0.0
  - 0.0
  - 0.0
  - 0.0
  - 0.0
  - 0.0
  - 1.0e-05
  - 0.0
  - 0.0
  - 0.0
  - 0.0
  - 0.0
  - 0.0
  - 1000000000000.0
  - 0.0
  - 0.0
  - 0.0
  - 0.0
  - 0.0
  - 0.0
  - 1000000000000.0
  - 0.0
  - 0.0
  - 0.0
  - 0.0
  - 0.0
  - 0.0
  - 1000000000000.0
  - 0.0
  - 0.0
  - 0.0
  - 0.0
  - 0.0
  - 0.0
  - 0.001
---
header:
  stamp:
    sec: 1013
    nanosec: 541000000
  frame_id: odom
child_frame_id: base_footprint
pose:
  pose:
    position:
      x: 0.07052461335630433
      y: -0.3696135455642939
      z: 0.008530663940847638
    orientation:
      x: 0.002158723014403412
      y: 0.0018852613259300322
      z: -0.7513884797116381
      w: 0.6598538764463793
  covariance:
  - 1.0e-05
  - 0.0
  - 0.0
  - 0.0
  - 0.0
  - 0.0
  - 0.0
  - 1.0e-05
  - 0.0
  - 0.0
  - 0.0
  - 0.0
  - 0.0
  - 0.0
  - 1000000000000.0
  - 0.0
  - 0.0
  - 0.0
  - 0.0
  - 0.0
  - 0.0
  - 1000000000000.0
  - 0.0
  - 0.0
  - 0.0
  - 0.0
  - 0.0
  - 0.0
  - 1000000000000.0
  - 0.0
  - 0.0
  - 0.0
  - 0.0
  - 0.0
  - 0.0
  - 0.001
twist:
  twist:
    linear:
      x: -2.0906426844368373e-05
      y: 0.00016282460977436086
      z: 0.0
    angular:
      x: 0.0
      y: 0.0
      z: 4.669974819441576e-05
  covariance:
  - 1.0e-05
  - 0.0
  - 0.0
  - 0.0
  - 0.0
  - 0.0
  - 0.0
  - 1.0e-05
  - 0.0
  - 0.0
  - 0.0
  - 0.0
  - 0.0
  - 0.0
  - 1000000000000.0
  - 0.0
  - 0.0
  - 0.0
  - 0.0
  - 0.0
  - 0.0
  - 1000000000000.0
  - 0.0
  - 0.0
  - 0.0
  - 0.0
  - 0.0
  - 0.0
  - 1000000000000.0
  - 0.0
  - 0.0
  - 0.0
  - 0.0
  - 0.0
  - 0.0
  - 0.001
---
header:
  stamp:
    sec: 1013
    nanosec: 575000000
  frame_id: odom
child_frame_id: base_footprint
pose:
  pose:
    position:
      x: 0.07052461976151647
      y: -0.36961352808309256
      z: 0.008528901943096698
    orientation:
      x: 0.002158272241814265
      y: 0.0018848671962777084
      z: -0.7513881453066376
      w: 0.6598542598401815
  covariance:
  - 1.0e-05
  - 0.0
  - 0.0
  - 0.0
  - 0.0
  - 0.0
  - 0.0
  - 1.0e-05
  - 0.0
  - 0.0
  - 0.0
  - 0.0
  - 0.0
  - 0.0
  - 1000000000000.0
  - 0.0
  - 0.0
  - 0.0
  - 0.0
  - 0.0
  - 0.0
  - 1000000000000.0
  - 0.0
  - 0.0
  - 0.0
  - 0.0
  - 0.0
  - 0.0
  - 1000000000000.0
  - 0.0
  - 0.0
  - 0.0
  - 0.0
  - 0.0
  - 0.0
  - 0.001
twist:
  twist:
    linear:
      x: -2.296099804031655e-05
      y: 0.00016535303272480935
      z: 0.0
    angular:
      x: 0.0
      y: 0.0
      z: 5.0315203008043923e-05
  covariance:
  - 1.0e-05
  - 0.0
  - 0.0
  - 0.0
  - 0.0
  - 0.0
  - 0.0
  - 1.0e-05
  - 0.0
  - 0.0
  - 0.0
  - 0.0
  - 0.0
  - 0.0
  - 1000000000000.0
  - 0.0
  - 0.0
  - 0.0
  - 0.0
  - 0.0
  - 0.0
  - 1000000000000.0
  - 0.0
  - 0.0
  - 0.0
  - 0.0
  - 0.0
  - 0.0
  - 1000000000000.0
  - 0.0
  - 0.0
  - 0.0
  - 0.0
  - 0.0
  - 0.0
  - 0.001
---
header:
  stamp:
    sec: 1013
    nanosec: 609000000
  frame_id: odom
child_frame_id: base_footprint
pose:
  pose:
    position:
      x: 0.07052463361701082
      y: -0.3696135245472031
      z: 0.008529058936713015
    orientation:
      x: 0.0021582155612390624
      y: 0.0018848130287249625
      z: -0.7513877947686344
      w: 0.6598546593441367
  covariance:
  - 1.0e-05
  - 0.0
  - 0.0
  - 0.0
  - 0.0
  - 0.0
  - 0.0
  - 1.0e-05
  - 0.0
  - 0.0
  - 0.0
  - 0.0
  - 0.0
  - 0.0
  - 1000000000000.0
  - 0.0
  - 0.0
  - 0.0
  - 0.0
  - 0.0
  - 0.0
  - 1000000000000.0
  - 0.0
  - 0.0
  - 0.0
  - 0.0
  - 0.0
  - 0.0
  - 1000000000000.0
  - 0.0
  - 0.0
  - 0.0
  - 0.0
  - 0.0
  - 0.0
  - 0.001
twist:
  twist:
    linear:
      x: -2.5006180322979836e-05
      y: 0.0001879222924734122
      z: 0.0
    angular:
      x: 0.0
      y: 0.0
      z: 4.903434914662135e-05
  covariance:
  - 1.0e-05
  - 0.0
  - 0.0
  - 0.0
  - 0.0
  - 0.0
  - 0.0
  - 1.0e-05
  - 0.0
  - 0.0
  - 0.0
  - 0.0
  - 0.0
  - 0.0
  - 1000000000000.0
  - 0.0
  - 0.0
  - 0.0
  - 0.0
  - 0.0
  - 0.0
  - 1000000000000.0
  - 0.0
  - 0.0
  - 0.0
  - 0.0
  - 0.0
  - 0.0
  - 1000000000000.0
  - 0.0
  - 0.0
  - 0.0
  - 0.0
  - 0.0
  - 0.0
  - 0.001
---
header:
  stamp:
    sec: 1013
    nanosec: 643000000
  frame_id: odom
child_frame_id: base_footprint
pose:
  pose:
    position:
      x: 0.07052461533178311
      y: -0.3696135319252506
      z: 0.00853227880155452
    orientation:
      x: 0.0021585492510642675
      y: 0.001885097492271935
      z: -0.7513874527841053
      w: 0.6598550468634677
  covariance:
  - 1.0e-05
  - 0.0
  - 0.0
  - 0.0
  - 0.0
  - 0.0
  - 0.0
  - 1.0e-05
  - 0.0
  - 0.0
  - 0.0
  - 0.0
  - 0.0
  - 0.0
  - 1000000000000.0
  - 0.0
  - 0.0
  - 0.0
  - 0.0
  - 0.0
  - 0.0
  - 1000000000000.0
  - 0.0
  - 0.0
  - 0.0
  - 0.0
  - 0.0
  - 0.0
  - 1000000000000.0
  - 0.0
  - 0.0
  - 0.0
  - 0.0
  - 0.0
  - 0.0
  - 0.001
twist:
  twist:
    linear:
      x: -2.6978821321703792e-05
      y: 0.000225168532024936
      z: 0.0
    angular:
      x: 0.0
      y: 0.0
      z: 4.5559720874045544e-05
  covariance:
  - 1.0e-05
  - 0.0
  - 0.0
  - 0.0
  - 0.0
  - 0.0
  - 0.0
  - 1.0e-05
  - 0.0
  - 0.0
  - 0.0
  - 0.0
  - 0.0
  - 0.0
  - 1000000000000.0
  - 0.0
  - 0.0
  - 0.0
  - 0.0
  - 0.0
  - 0.0
  - 1000000000000.0
  - 0.0
  - 0.0
  - 0.0
  - 0.0
  - 0.0
  - 0.0
  - 1000000000000.0
  - 0.0
  - 0.0
  - 0.0
  - 0.0
  - 0.0
  - 0.0
  - 0.001
---
header:
  stamp:
    sec: 1013
    nanosec: 677000000
  frame_id: odom
child_frame_id: base_footprint
pose:
  pose:
    position:
      x: 0.07052459879604912
      y: -0.369613540724879
      z: 0.008534689253813761
    orientation:
      x: 0.0021591130880630506
      y: 0.0018855810731000602
      z: -0.7513871155701822
      w: 0.6598554276277578
  covariance:
  - 1.0e-05
  - 0.0
  - 0.0
  - 0.0
  - 0.0
  - 0.0
  - 0.0
  - 1.0e-05
  - 0.0
  - 0.0
  - 0.0
  - 0.0
  - 0.0
  - 0.0
  - 1000000000000.0
  - 0.0
  - 0.0
  - 0.0
  - 0.0
  - 0.0
  - 0.0
  - 1000000000000.0
  - 0.0
  - 0.0
  - 0.0
  - 0.0
  - 0.0
  - 0.0
  - 1000000000000.0
  - 0.0
  - 0.0
  - 0.0
  - 0.0
  - 0.0
  - 0.0
  - 0.001
twist:
  twist:
    linear:
      x: -2.1423718424045966e-05
      y: 0.0002009120988069493
      z: 0.0
    angular:
      x: 0.0
      y: 0.0
      z: 4.2753174400046124e-05
  covariance:
  - 1.0e-05
  - 0.0
  - 0.0
  - 0.0
  - 0.0
  - 0.0
  - 0.0
  - 1.0e-05
  - 0.0
  - 0.0
  - 0.0
  - 0.0
  - 0.0
  - 0.0
  - 1000000000000.0
  - 0.0
  - 0.0
  - 0.0
  - 0.0
  - 0.0
  - 0.0
  - 1000000000000.0
  - 0.0
  - 0.0
  - 0.0
  - 0.0
  - 0.0
  - 0.0
  - 1000000000000.0
  - 0.0
  - 0.0
  - 0.0
  - 0.0
  - 0.0
  - 0.0
  - 0.001
---
header:
  stamp:
    sec: 1013
    nanosec: 711000000
  frame_id: odom
child_frame_id: base_footprint
pose:
  pose:
    position:
      x: 0.07052459482184785
      y: -0.36961355424427944
      z: 0.008533069640551295
    orientation:
      x: 0.002159853299112871
      y: 0.0018862170541062704
      z: -0.7513867691721654
      w: 0.6598558178359619
  covariance:
  - 1.0e-05
  - 0.0
  - 0.0
  - 0.0
  - 0.0
  - 0.0
  - 0.0
  - 1.0e-05
  - 0.0
  - 0.0
  - 0.0
  - 0.0
  - 0.0
  - 0.0
  - 1000000000000.0
  - 0.0
  - 0.0
  - 0.0
  - 0.0
  - 0.0
  - 0.0
  - 1000000000000.0
  - 0.0
  - 0.0
  - 0.0
  - 0.0
  - 0.0
  - 0.0
  - 1000000000000.0
  - 0.0
  - 0.0
  - 0.0
  - 0.0
  - 0.0
  - 0.0
  - 0.001
twist:
  twist:
    linear:
      x: -1.7605468427511286e-05
      y: 0.0001606317919183567
      z: 0.0
    angular:
      x: 0.0
      y: 0.0
      z: 4.3826941393189514e-05
  covariance:
  - 1.0e-05
  - 0.0
  - 0.0
  - 0.0
  - 0.0
  - 0.0
  - 0.0
  - 1.0e-05
  - 0.0
  - 0.0
  - 0.0
  - 0.0
  - 0.0
  - 0.0
  - 1000000000000.0
  - 0.0
  - 0.0
  - 0.0
  - 0.0
  - 0.0
  - 0.0
  - 1000000000000.0
  - 0.0
  - 0.0
  - 0.0
  - 0.0
  - 0.0
  - 0.0
  - 1000000000000.0
  - 0.0
  - 0.0
  - 0.0
  - 0.0
  - 0.0
  - 0.0
  - 0.001
---
header:
  stamp:
    sec: 1013
    nanosec: 745000000
  frame_id: odom
child_frame_id: base_footprint
pose:
  pose:
    position:
      x: 0.07052462916309803
      y: -0.36961356917498206
      z: 0.00852727456489693
    orientation:
      x: 0.0021605352658663076
      y: 0.0018868007546591012
      z: -0.7513864247523522
      w: 0.6598562061299075
  covariance:
  - 1.0e-05
  - 0.0
  - 0.0
  - 0.0
  - 0.0
  - 0.0
  - 0.0
  - 1.0e-05
  - 0.0
  - 0.0
  - 0.0
  - 0.0
  - 0.0
  - 0.0
  - 1000000000000.0
  - 0.0
  - 0.0
  - 0.0
  - 0.0
  - 0.0
  - 0.0
  - 1000000000000.0
  - 0.0
  - 0.0
  - 0.0
  - 0.0
  - 0.0
  - 0.0
  - 1000000000000.0
  - 0.0
  - 0.0
  - 0.0
  - 0.0
  - 0.0
  - 0.0
  - 0.001
twist:
  twist:
    linear:
      x: -2.526143064922402e-05
      y: 0.00019099699547322428
      z: 0.0
    angular:
      x: 0.0
      y: 0.0
      z: 4.852807107989591e-05
  covariance:
  - 1.0e-05
  - 0.0
  - 0.0
  - 0.0
  - 0.0
  - 0.0
  - 0.0
  - 1.0e-05
  - 0.0
  - 0.0
  - 0.0
  - 0.0
  - 0.0
  - 0.0
  - 1000000000000.0
  - 0.0
  - 0.0
  - 0.0
  - 0.0
  - 0.0
  - 0.0
  - 1000000000000.0
  - 0.0
  - 0.0
  - 0.0
  - 0.0
  - 0.0
  - 0.0
  - 1000000000000.0
  - 0.0
  - 0.0
  - 0.0
  - 0.0
  - 0.0
  - 0.0
  - 0.001
---
header:
  stamp:
    sec: 1013
    nanosec: 779000000
  frame_id: odom
child_frame_id: base_footprint
pose:
  pose:
    position:
      x: 0.07052459640304612
      y: -0.36961356776797377
      z: 0.008529728281594207
    orientation:
      x: 0.002160695760719096
      y: 0.0018869335589853638
      z: -0.751386092673974
      w: 0.6598565833661977
  covariance:
  - 1.0e-05
  - 0.0
  - 0.0
  - 0.0
  - 0.0
  - 0.0
  - 0.0
  - 1.0e-05
  - 0.0
  - 0.0
  - 0.0
  - 0.0
  - 0.0
  - 0.0
  - 1000000000000.0
  - 0.0
  - 0.0
  - 0.0
  - 0.0
  - 0.0
  - 0.0
  - 1000000000000.0
  - 0.0
  - 0.0
  - 0.0
  - 0.0
  - 0.0
  - 0.0
  - 1000000000000.0
  - 0.0
  - 0.0
  - 0.0
  - 0.0
  - 0.0
  - 0.0
  - 0.001
twist:
  twist:
    linear:
      x: -1.9512629734220098e-05
      y: 0.00016177064178207469
      z: 0.0
    angular:
      x: 0.0
      y: 0.0
      z: 4.549200575644387e-05
  covariance:
  - 1.0e-05
  - 0.0
  - 0.0
  - 0.0
  - 0.0
  - 0.0
  - 0.0
  - 1.0e-05
  - 0.0
  - 0.0
  - 0.0
  - 0.0
  - 0.0
  - 0.0
  - 1000000000000.0
  - 0.0
  - 0.0
  - 0.0
  - 0.0
  - 0.0
  - 0.0
  - 1000000000000.0
  - 0.0
  - 0.0
  - 0.0
  - 0.0
  - 0.0
  - 0.0
  - 1000000000000.0
  - 0.0
  - 0.0
  - 0.0
  - 0.0
  - 0.0
  - 0.0
  - 0.001
---
header:
  stamp:
    sec: 1013
    nanosec: 813000000
  frame_id: odom
child_frame_id: base_footprint
pose:
  pose:
    position:
      x: 0.07052459166599014
      y: -0.3696135672364809
      z: 0.008533797156859644
    orientation:
      x: 0.0021607279967571034
      y: 0.0018869597634133893
      z: -0.7513857607376507
      w: 0.6598569611651282
  covariance:
  - 1.0e-05
  - 0.0
  - 0.0
  - 0.0
  - 0.0
  - 0.0
  - 0.0
  - 1.0e-05
  - 0.0
  - 0.0
  - 0.0
  - 0.0
  - 0.0
  - 0.0
  - 1000000000000.0
  - 0.0
  - 0.0
  - 0.0
  - 0.0
  - 0.0
  - 0.0
  - 1000000000000.0
  - 0.0
  - 0.0
  - 0.0
  - 0.0
  - 0.0
  - 0.0
  - 1000000000000.0
  - 0.0
  - 0.0
  - 0.0
  - 0.0
  - 0.0
  - 0.0
  - 0.001
twist:
  twist:
    linear:
      x: -2.4675593226665616e-05
      y: 0.00021307754550398822
      z: 0.0
    angular:
      x: 0.0
      y: 0.0
      z: 4.369117562047134e-05
  covariance:
  - 1.0e-05
  - 0.0
  - 0.0
  - 0.0
  - 0.0
  - 0.0
  - 0.0
  - 1.0e-05
  - 0.0
  - 0.0
  - 0.0
  - 0.0
  - 0.0
  - 0.0
  - 1000000000000.0
  - 0.0
  - 0.0
  - 0.0
  - 0.0
  - 0.0
  - 0.0
  - 1000000000000.0
  - 0.0
  - 0.0
  - 0.0
  - 0.0
  - 0.0
  - 0.0
  - 1000000000000.0
  - 0.0
  - 0.0
  - 0.0
  - 0.0
  - 0.0
  - 0.0
  - 0.001
---
header:
  stamp:
    sec: 1013
    nanosec: 847000000
  frame_id: odom
child_frame_id: base_footprint
pose:
  pose:
    position:
      x: 0.07052459774550082
      y: -0.3696135373967937
      z: 0.008529029131390973
    orientation:
      x: 0.0021599353728131215
      y: 0.0018862667079556938
      z: -0.7513854123708176
      w: 0.6598573624302667
  covariance:
  - 1.0e-05
  - 0.0
  - 0.0
  - 0.0
  - 0.0
  - 0.0
  - 0.0
  - 1.0e-05
  - 0.0
  - 0.0
  - 0.0
  - 0.0
  - 0.0
  - 0.0
  - 1000000000000.0
  - 0.0
  - 0.0
  - 0.0
  - 0.0
  - 0.0
  - 0.0
  - 1000000000000.0
  - 0.0
  - 0.0
  - 0.0
  - 0.0
  - 0.0
  - 0.0
  - 1000000000000.0
  - 0.0
  - 0.0
  - 0.0
  - 0.0
  - 0.0
  - 0.0
  - 0.001
twist:
  twist:
    linear:
      x: -2.268692723652981e-05
      y: 0.00016350743652568714
      z: 0.0
    angular:
      x: 0.0
      y: 0.0
      z: 4.8882875078057655e-05
  covariance:
  - 1.0e-05
  - 0.0
  - 0.0
  - 0.0
  - 0.0
  - 0.0
  - 0.0
  - 1.0e-05
  - 0.0
  - 0.0
  - 0.0
  - 0.0
  - 0.0
  - 0.0
  - 1000000000000.0
  - 0.0
  - 0.0
  - 0.0
  - 0.0
  - 0.0
  - 0.0
  - 1000000000000.0
  - 0.0
  - 0.0
  - 0.0
  - 0.0
  - 0.0
  - 0.0
  - 1000000000000.0
  - 0.0
  - 0.0
  - 0.0
  - 0.0
  - 0.0
  - 0.0
  - 0.001
---
header:
  stamp:
    sec: 1013
    nanosec: 881000000
  frame_id: odom
child_frame_id: base_footprint
pose:
  pose:
    position:
      x: 0.07052458742190537
      y: -0.369613520535252
      z: 0.008534226977580502
    orientation:
      x: 0.0021593432138553685
      y: 0.0018857503911751412
      z: -0.7513850623006525
      w: 0.6598577644718531
  covariance:
  - 1.0e-05
  - 0.0
  - 0.0
  - 0.0
  - 0.0
  - 0.0
  - 0.0
  - 1.0e-05
  - 0.0
  - 0.0
  - 0.0
  - 0.0
  - 0.0
  - 0.0
  - 1000000000000.0
  - 0.0
  - 0.0
  - 0.0
  - 0.0
  - 0.0
  - 0.0
  - 1000000000000.0
  - 0.0
  - 0.0
  - 0.0
  - 0.0
  - 0.0
  - 0.0
  - 1000000000000.0
  - 0.0
  - 0.0
  - 0.0
  - 0.0
  - 0.0
  - 0.0
  - 0.001
twist:
  twist:
    linear:
      x: -1.7485286532751427e-05
      y: 0.00016582461269992518
      z: 0.0
    angular:
      x: 0.0
      y: 0.0
      z: 4.0885980233229444e-05
  covariance:
  - 1.0e-05
  - 0.0
  - 0.0
  - 0.0
  - 0.0
  - 0.0
  - 0.0
  - 1.0e-05
  - 0.0
  - 0.0
  - 0.0
  - 0.0
  - 0.0
  - 0.0
  - 1000000000000.0
  - 0.0
  - 0.0
  - 0.0
  - 0.0
  - 0.0
  - 0.0
  - 1000000000000.0
  - 0.0
  - 0.0
  - 0.0
  - 0.0
  - 0.0
  - 0.0
  - 1000000000000.0
  - 0.0
  - 0.0
  - 0.0
  - 0.0
  - 0.0
  - 0.0
  - 0.001
---
header:
  stamp:
    sec: 1013
    nanosec: 915000000
  frame_id: odom
child_frame_id: base_footprint
pose:
  pose:
    position:
      x: 0.07052458843496456
      y: -0.36961349943031396
      z: 0.008531749513168107
    orientation:
      x: 0.002158772087925105
      y: 0.001885252190697691
      z: -0.7513847342413089
      w: 0.6598581413276398
  covariance:
  - 1.0e-05
  - 0.0
  - 0.0
  - 0.0
  - 0.0
  - 0.0
  - 0.0
  - 1.0e-05
  - 0.0
  - 0.0
  - 0.0
  - 0.0
  - 0.0
  - 0.0
  - 1000000000000.0
  - 0.0
  - 0.0
  - 0.0
  - 0.0
  - 0.0
  - 0.0
  - 1000000000000.0
  - 0.0
  - 0.0
  - 0.0
  - 0.0
  - 0.0
  - 0.0
  - 1000000000000.0
  - 0.0
  - 0.0
  - 0.0
  - 0.0
  - 0.0
  - 0.0
  - 0.001
twist:
  twist:
    linear:
      x: -1.9306011431531206e-05
      y: 0.0001595119107443976
      z: 0.0
    angular:
      x: 0.0
      y: 0.0
      z: 4.596709142113664e-05
  covariance:
  - 1.0e-05
  - 0.0
  - 0.0
  - 0.0
  - 0.0
  - 0.0
  - 0.0
  - 1.0e-05
  - 0.0
  - 0.0
  - 0.0
  - 0.0
  - 0.0
  - 0.0
  - 1000000000000.0
  - 0.0
  - 0.0
  - 0.0
  - 0.0
  - 0.0
  - 0.0
  - 1000000000000.0
  - 0.0
  - 0.0
  - 0.0
  - 0.0
  - 0.0
  - 0.0
  - 1000000000000.0
  - 0.0
  - 0.0
  - 0.0
  - 0.0
  - 0.0
  - 0.0
  - 0.001
---
header:
  stamp:
    sec: 1013
    nanosec: 949000000
  frame_id: odom
child_frame_id: base_footprint
pose:
  pose:
    position:
      x: 0.07052459305395359
      y: -0.3696134894155321
      z: 0.008529541206833847
    orientation:
      x: 0.0021585942477836853
      y: 0.0018850936438161688
      z: -0.7513843875158596
      w: 0.6598585371806932
  covariance:
  - 1.0e-05
  - 0.0
  - 0.0
  - 0.0
  - 0.0
  - 0.0
  - 0.0
  - 1.0e-05
  - 0.0
  - 0.0
  - 0.0
  - 0.0
  - 0.0
  - 0.0
  - 1000000000000.0
  - 0.0
  - 0.0
  - 0.0
  - 0.0
  - 0.0
  - 0.0
  - 1000000000000.0
  - 0.0
  - 0.0
  - 0.0
  - 0.0
  - 0.0
  - 0.0
  - 1000000000000.0
  - 0.0
  - 0.0
  - 0.0
  - 0.0
  - 0.0
  - 0.0
  - 0.001
twist:
  twist:
    linear:
      x: -2.114033696272971e-05
      y: 0.00016090442301382583
      z: 0.0
    angular:
      x: 0.0
      y: 0.0
      z: 4.966074469595091e-05
  covariance:
  - 1.0e-05
  - 0.0
  - 0.0
  - 0.0
  - 0.0
  - 0.0
  - 0.0
  - 1.0e-05
  - 0.0
  - 0.0
  - 0.0
  - 0.0
  - 0.0
  - 0.0
  - 1000000000000.0
  - 0.0
  - 0.0
  - 0.0
  - 0.0
  - 0.0
  - 0.0
  - 1000000000000.0
  - 0.0
  - 0.0
  - 0.0
  - 0.0
  - 0.0
  - 0.0
  - 1000000000000.0
  - 0.0
  - 0.0
  - 0.0
  - 0.0
  - 0.0
  - 0.0
  - 0.001
---
header:
  stamp:
    sec: 1013
    nanosec: 983000000
  frame_id: odom
child_frame_id: base_footprint
pose:
  pose:
    position:
      x: 0.0705245971906695
      y: -0.36961348965827256
      z: 0.008528681583030271
    orientation:
      x: 0.002158809862492034
      y: 0.001885275708625579
      z: -0.7513840487548862
      w: 0.6598589217038707
  covariance:
  - 1.0e-05
  - 0.0
  - 0.0
  - 0.0
  - 0.0
  - 0.0
  - 0.0
  - 1.0e-05
  - 0.0
  - 0.0
  - 0.0
  - 0.0
  - 0.0
  - 0.0
  - 1000000000000.0
  - 0.0
  - 0.0
  - 0.0
  - 0.0
  - 0.0
  - 0.0
  - 1000000000000.0
  - 0.0
  - 0.0
  - 0.0
  - 0.0
  - 0.0
  - 0.0
  - 1000000000000.0
  - 0.0
  - 0.0
  - 0.0
  - 0.0
  - 0.0
  - 0.0
  - 0.001
twist:
  twist:
    linear:
      x: -2.297039353412915e-05
      y: 0.00017127571424937896
      z: 0.0
    angular:
      x: 0.0
      y: 0.0
      z: 4.769485919468967e-05
  covariance:
  - 1.0e-05
  - 0.0
  - 0.0
  - 0.0
  - 0.0
  - 0.0
  - 0.0
  - 1.0e-05
  - 0.0
  - 0.0
  - 0.0
  - 0.0
  - 0.0
  - 0.0
  - 1000000000000.0
  - 0.0
  - 0.0
  - 0.0
  - 0.0
  - 0.0
  - 0.0
  - 1000000000000.0
  - 0.0
  - 0.0
  - 0.0
  - 0.0
  - 0.0
  - 0.0
  - 1000000000000.0
  - 0.0
  - 0.0
  - 0.0
  - 0.0
  - 0.0
  - 0.0
  - 0.001
---
header:
  stamp:
    sec: 1014
    nanosec: 17000000
  frame_id: odom
child_frame_id: base_footprint
pose:
  pose:
    position:
      x: 0.07052460447138888
      y: -0.36961350637427515
      z: 0.008530181820972345
    orientation:
      x: 0.0021594157370410485
      y: 0.0018857965755260668
      z: -0.7513837182960519
      w: 0.6598592945276665
  covariance:
  - 1.0e-05
  - 0.0
  - 0.0
  - 0.0
  - 0.0
  - 0.0
  - 0.0
  - 1.0e-05
  - 0.0
  - 0.0
  - 0.0
  - 0.0
  - 0.0
  - 0.0
  - 1000000000000.0
  - 0.0
  - 0.0
  - 0.0
  - 0.0
  - 0.0
  - 0.0
  - 1000000000000.0
  - 0.0
  - 0.0
  - 0.0
  - 0.0
  - 0.0
  - 0.0
  - 1000000000000.0
  - 0.0
  - 0.0
  - 0.0
  - 0.0
  - 0.0
  - 0.0
  - 0.001
twist:
  twist:
    linear:
      x: -2.7662032355820555e-05
      y: 0.0002182936048955116
      z: 0.0
    angular:
      x: 0.0
      y: 0.0
      z: 4.735101012809877e-05
  covariance:
  - 1.0e-05
  - 0.0
  - 0.0
  - 0.0
  - 0.0
  - 0.0
  - 0.0
  - 1.0e-05
  - 0.0
  - 0.0
  - 0.0
  - 0.0
  - 0.0
  - 0.0
  - 1000000000000.0
  - 0.0
  - 0.0
  - 0.0
  - 0.0
  - 0.0
  - 0.0
  - 1000000000000.0
  - 0.0
  - 0.0
  - 0.0
  - 0.0
  - 0.0
  - 0.0
  - 1000000000000.0
  - 0.0
  - 0.0
  - 0.0
  - 0.0
  - 0.0
  - 0.0
  - 0.001
---
header:
  stamp:
    sec: 1014
    nanosec: 51000000
  frame_id: odom
child_frame_id: base_footprint
pose:
  pose:
    position:
      x: 0.0705245779907751
      y: -0.36961352684451204
      z: 0.008533862322183706
    orientation:
      x: 0.002160355174432727
      y: 0.0018866086311677183
      z: -0.7513833763400265
      w: 0.6598596785175278
  covariance:
  - 1.0e-05
  - 0.0
  - 0.0
  - 0.0
  - 0.0
  - 0.0
  - 0.0
  - 1.0e-05
  - 0.0
  - 0.0
  - 0.0
  - 0.0
  - 0.0
  - 0.0
  - 1000000000000.0
  - 0.0
  - 0.0
  - 0.0
  - 0.0
  - 0.0
  - 0.0
  - 1000000000000.0
  - 0.0
  - 0.0
  - 0.0
  - 0.0
  - 0.0
  - 0.0
  - 1000000000000.0
  - 0.0
  - 0.0
  - 0.0
  - 0.0
  - 0.0
  - 0.0
  - 0.001
twist:
  twist:
    linear:
      x: -2.3726143593290656e-05
      y: 0.00021247420856791756
      z: 0.0
    angular:
      x: 0.0
      y: 0.0
      z: 4.4158416282802486e-05
  covariance:
  - 1.0e-05
  - 0.0
  - 0.0
  - 0.0
  - 0.0
  - 0.0
  - 0.0
  - 1.0e-05
  - 0.0
  - 0.0
  - 0.0
  - 0.0
  - 0.0
  - 0.0
  - 1000000000000.0
  - 0.0
  - 0.0
  - 0.0
  - 0.0
  - 0.0
  - 0.0
  - 1000000000000.0
  - 0.0
  - 0.0
  - 0.0
  - 0.0
  - 0.0
  - 0.0
  - 1000000000000.0
  - 0.0
  - 0.0
  - 0.0
  - 0.0
  - 0.0
  - 0.0
  - 0.001
---
header:
  stamp:
    sec: 1014
    nanosec: 85000000
  frame_id: odom
child_frame_id: base_footprint
pose:
  pose:
    position:
      x: 0.07052459792491966
      y: -0.3696135184746613
      z: 0.00852582531558447
    orientation:
      x: 0.0021603552327485605
      y: 0.00188659702994606
      z: -0.7513830356642307
      w: 0.6598600664784318
  covariance:
  - 1.0e-05
  - 0.0
  - 0.0
  - 0.0
  - 0.0
  - 0.0
  - 0.0
  - 1.0e-05
  - 0.0
  - 0.0
  - 0.0
  - 0.0
  - 0.0
  - 0.0
  - 1000000000000.0
  - 0.0
  - 0.0
  - 0.0
  - 0.0
  - 0.0
  - 0.0
  - 1000000000000.0
  - 0.0
  - 0.0
  - 0.0
  - 0.0
  - 0.0
  - 0.0
  - 1000000000000.0
  - 0.0
  - 0.0
  - 0.0
  - 0.0
  - 0.0
  - 0.0
  - 0.001
twist:
  twist:
    linear:
      x: -2.3930374829160504e-05
      y: 0.00017372127711879305
      z: 0.0
    angular:
      x: 0.0
      y: 0.0
      z: 4.94590102727087e-05
  covariance:
  - 1.0e-05
  - 0.0
  - 0.0
  - 0.0
  - 0.0
  - 0.0
  - 0.0
  - 1.0e-05
  - 0.0
  - 0.0
  - 0.0
  - 0.0
  - 0.0
  - 0.0
  - 1000000000000.0
  - 0.0
  - 0.0
  - 0.0
  - 0.0
  - 0.0
  - 0.0
  - 1000000000000.0
  - 0.0
  - 0.0
  - 0.0
  - 0.0
  - 0.0
  - 0.0
  - 1000000000000.0
  - 0.0
  - 0.0
  - 0.0
  - 0.0
  - 0.0
  - 0.0
  - 0.001
---
header:
  stamp:
    sec: 1014
    nanosec: 119000000
  frame_id: odom
child_frame_id: base_footprint
pose:
  pose:
    position:
      x: 0.07052457512934128
      y: -0.36961351271452175
      z: 0.00853045796885034
    orientation:
      x: 0.0021602194974800508
      y: 0.0018864728346558804
      z: -0.751382704790481
      w: 0.6598604440438203
  covariance:
  - 1.0e-05
  - 0.0
  - 0.0
  - 0.0
  - 0.0
  - 0.0
  - 0.0
  - 1.0e-05
  - 0.0
  - 0.0
  - 0.0
  - 0.0
  - 0.0
  - 0.0
  - 1000000000000.0
  - 0.0
  - 0.0
  - 0.0
  - 0.0
  - 0.0
  - 0.0
  - 1000000000000.0
  - 0.0
  - 0.0
  - 0.0
  - 0.0
  - 0.0
  - 0.0
  - 1000000000000.0
  - 0.0
  - 0.0
  - 0.0
  - 0.0
  - 0.0
  - 0.0
  - 0.001
twist:
  twist:
    linear:
      x: -1.8810387305734214e-05
      y: 0.00015861698515495844
      z: 0.0
    angular:
      x: 0.0
      y: 0.0
      z: 4.560128752376396e-05
  covariance:
  - 1.0e-05
  - 0.0
  - 0.0
  - 0.0
  - 0.0
  - 0.0
  - 0.0
  - 1.0e-05
  - 0.0
  - 0.0
  - 0.0
  - 0.0
  - 0.0
  - 0.0
  - 1000000000000.0
  - 0.0
  - 0.0
  - 0.0
  - 0.0
  - 0.0
  - 0.0
  - 1000000000000.0
  - 0.0
  - 0.0
  - 0.0
  - 0.0
  - 0.0
  - 0.0
  - 1000000000000.0
  - 0.0
  - 0.0
  - 0.0
  - 0.0
  - 0.0
  - 0.0
  - 0.001
---
header:
  stamp:
    sec: 1014
    nanosec: 153000000
  frame_id: odom
child_frame_id: base_footprint
pose:
  pose:
    position:
      x: 0.07052460396479904
      y: -0.36961350595861103
      z: 0.008527752913432374
    orientation:
      x: 0.0021600246546933555
      y: 0.0018863016390790234
      z: -0.7513823786984859
      w: 0.6598608164916466
  covariance:
  - 1.0e-05
  - 0.0
  - 0.0
  - 0.0
  - 0.0
  - 0.0
  - 0.0
  - 1.0e-05
  - 0.0
  - 0.0
  - 0.0
  - 0.0
  - 0.0
  - 0.0
  - 1000000000000.0
  - 0.0
  - 0.0
  - 0.0
  - 0.0
  - 0.0
  - 0.0
  - 1000000000000.0
  - 0.0
  - 0.0
  - 0.0
  - 0.0
  - 0.0
  - 0.0
  - 1000000000000.0
  - 0.0
  - 0.0
  - 0.0
  - 0.0
  - 0.0
  - 0.0
  - 0.001
twist:
  twist:
    linear:
      x: -2.9827604734369423e-05
      y: 0.00022325268804341766
      z: 0.0
    angular:
      x: 0.0
      y: 0.0
      z: 5.125966469571209e-05
  covariance:
  - 1.0e-05
  - 0.0
  - 0.0
  - 0.0
  - 0.0
  - 0.0
  - 0.0
  - 1.0e-05
  - 0.0
  - 0.0
  - 0.0
  - 0.0
  - 0.0
  - 0.0
  - 1000000000000.0
  - 0.0
  - 0.0
  - 0.0
  - 0.0
  - 0.0
  - 0.0
  - 1000000000000.0
  - 0.0
  - 0.0
  - 0.0
  - 0.0
  - 0.0
  - 0.0
  - 1000000000000.0
  - 0.0
  - 0.0
  - 0.0
  - 0.0
  - 0.0
  - 0.0
  - 0.001
---
header:
  stamp:
    sec: 1014
    nanosec: 187000000
  frame_id: odom
child_frame_id: base_footprint
pose:
  pose:
    position:
      x: 0.0705245701686947
      y: -0.36961348275297906
      z: 0.008531870418730478
    orientation:
      x: 0.0021594324754182796
      y: 0.001885783968611423
      z: -0.7513820214353777
      w: 0.659861226724145
  covariance:
  - 1.0e-05
  - 0.0
  - 0.0
  - 0.0
  - 0.0
  - 0.0
  - 0.0
  - 1.0e-05
  - 0.0
  - 0.0
  - 0.0
  - 0.0
  - 0.0
  - 0.0
  - 1000000000000.0
  - 0.0
  - 0.0
  - 0.0
  - 0.0
  - 0.0
  - 0.0
  - 1000000000000.0
  - 0.0
  - 0.0
  - 0.0
  - 0.0
  - 0.0
  - 0.0
  - 1000000000000.0
  - 0.0
  - 0.0
  - 0.0
  - 0.0
  - 0.0
  - 0.0
  - 0.001
twist:
  twist:
    linear:
      x: -1.905116602068341e-05
      y: 0.00015761449783468899
      z: 0.0
    angular:
      x: 0.0
      y: 0.0
      z: 4.4753929822727504e-05
  covariance:
  - 1.0e-05
  - 0.0
  - 0.0
  - 0.0
  - 0.0
  - 0.0
  - 0.0
  - 1.0e-05
  - 0.0
  - 0.0
  - 0.0
  - 0.0
  - 0.0
  - 0.0
  - 1000000000000.0
  - 0.0
  - 0.0
  - 0.0
  - 0.0
  - 0.0
  - 0.0
  - 1000000000000.0
  - 0.0
  - 0.0
  - 0.0
  - 0.0
  - 0.0
  - 0.0
  - 1000000000000.0
  - 0.0
  - 0.0
  - 0.0
  - 0.0
  - 0.0
  - 0.0
  - 0.001
---
header:
  stamp:
    sec: 1014
    nanosec: 221000000
  frame_id: odom
child_frame_id: base_footprint
pose:
  pose:
    position:
      x: 0.07052457465705152
      y: -0.3696134722836254
      z: 0.008529550025499474
    orientation:
      x: 0.0021592423344322913
      y: 0.0018856169485476713
      z: -0.7513816899942249
      w: 0.6598616052345272
  covariance:
  - 1.0e-05
  - 0.0
  - 0.0
  - 0.0
  - 0.0
  - 0.0
  - 0.0
  - 1.0e-05
  - 0.0
  - 0.0
  - 0.0
  - 0.0
  - 0.0
  - 0.0
  - 1000000000000.0
  - 0.0
  - 0.0
  - 0.0
  - 0.0
  - 0.0
  - 0.0
  - 1000000000000.0
  - 0.0
  - 0.0
  - 0.0
  - 0.0
  - 0.0
  - 0.0
  - 1000000000000.0
  - 0.0
  - 0.0
  - 0.0
  - 0.0
  - 0.0
  - 0.0
  - 0.001
twist:
  twist:
    linear:
      x: -2.088083490743706e-05
      y: 0.00015893469121723968
      z: 0.0
    angular:
      x: 0.0
      y: 0.0
      z: 4.860092829400803e-05
  covariance:
  - 1.0e-05
  - 0.0
  - 0.0
  - 0.0
  - 0.0
  - 0.0
  - 0.0
  - 1.0e-05
  - 0.0
  - 0.0
  - 0.0
  - 0.0
  - 0.0
  - 0.0
  - 1000000000000.0
  - 0.0
  - 0.0
  - 0.0
  - 0.0
  - 0.0
  - 0.0
  - 1000000000000.0
  - 0.0
  - 0.0
  - 0.0
  - 0.0
  - 0.0
  - 0.0
  - 1000000000000.0
  - 0.0
  - 0.0
  - 0.0
  - 0.0
  - 0.0
  - 0.0
  - 0.001
---
header:
  stamp:
    sec: 1014
    nanosec: 255000000
  frame_id: odom
child_frame_id: base_footprint
pose:
  pose:
    position:
      x: 0.07052457884301164
      y: -0.3696134722581198
      z: 0.008528682018570672
    orientation:
      x: 0.0021594448373660003
      y: 0.0018857894931930445
      z: -0.7513813517662746
      w: 0.659861989217342
  covariance:
  - 1.0e-05
  - 0.0
  - 0.0
  - 0.0
  - 0.0
  - 0.0
  - 0.0
  - 1.0e-05
  - 0.0
  - 0.0
  - 0.0
  - 0.0
  - 0.0
  - 0.0
  - 1000000000000.0
  - 0.0
  - 0.0
  - 0.0
  - 0.0
  - 0.0
  - 0.0
  - 1000000000000.0
  - 0.0
  - 0.0
  - 0.0
  - 0.0
  - 0.0
  - 0.0
  - 1000000000000.0
  - 0.0
  - 0.0
  - 0.0
  - 0.0
  - 0.0
  - 0.0
  - 0.001
twist:
  twist:
    linear:
      x: -2.2714937960367446e-05
      y: 0.00016932473561606735
      z: 0.0
    angular:
      x: 0.0
      y: 0.0
      z: 4.805950205734216e-05
  covariance:
  - 1.0e-05
  - 0.0
  - 0.0
  - 0.0
  - 0.0
  - 0.0
  - 0.0
  - 1.0e-05
  - 0.0
  - 0.0
  - 0.0
  - 0.0
  - 0.0
  - 0.0
  - 1000000000000.0
  - 0.0
  - 0.0
  - 0.0
  - 0.0
  - 0.0
  - 0.0
  - 1000000000000.0
  - 0.0
  - 0.0
  - 0.0
  - 0.0
  - 0.0
  - 0.0
  - 1000000000000.0
  - 0.0
  - 0.0
  - 0.0
  - 0.0
  - 0.0
  - 0.0
  - 0.001
---
header:
  stamp:
    sec: 1014
    nanosec: 289000000
  frame_id: odom
child_frame_id: base_footprint
pose:
  pose:
    position:
      x: 0.07052458629439863
      y: -0.369613488660016
      z: 0.008530182133757655
    orientation:
      x: 0.0021600378303284237
      y: 0.0018863006954840528
      z: -0.7513810174046737
      w: 0.6598623665509158
  covariance:
  - 1.0e-05
  - 0.0
  - 0.0
  - 0.0
  - 0.0
  - 0.0
  - 0.0
  - 1.0e-05
  - 0.0
  - 0.0
  - 0.0
  - 0.0
  - 0.0
  - 0.0
  - 1000000000000.0
  - 0.0
  - 0.0
  - 0.0
  - 0.0
  - 0.0
  - 0.0
  - 1000000000000.0
  - 0.0
  - 0.0
  - 0.0
  - 0.0
  - 0.0
  - 0.0
  - 1000000000000.0
  - 0.0
  - 0.0
  - 0.0
  - 0.0
  - 0.0
  - 0.0
  - 0.001
twist:
  twist:
    linear:
      x: -2.741498703349789e-05
      y: 0.00021635690272516593
      z: 0.0
    angular:
      x: 0.0
      y: 0.0
      z: 4.7118549945071e-05
  covariance:
  - 1.0e-05
  - 0.0
  - 0.0
  - 0.0
  - 0.0
  - 0.0
  - 0.0
  - 1.0e-05
  - 0.0
  - 0.0
  - 0.0
  - 0.0
  - 0.0
  - 0.0
  - 1000000000000.0
  - 0.0
  - 0.0
  - 0.0
  - 0.0
  - 0.0
  - 0.0
  - 1000000000000.0
  - 0.0
  - 0.0
  - 0.0
  - 0.0
  - 0.0
  - 0.0
  - 1000000000000.0
  - 0.0
  - 0.0
  - 0.0
  - 0.0
  - 0.0
  - 0.0
  - 0.001
---
header:
  stamp:
    sec: 1014
    nanosec: 323000000
  frame_id: odom
child_frame_id: base_footprint
pose:
  pose:
    position:
      x: 0.07052456629183068
      y: -0.3696134860264321
      z: 0.008529668807784233
    orientation:
      x: 0.0021601862307448773
      y: 0.0018864207418513301
      z: -0.7513806754316622
      w: 0.6598627551241942
  covariance:
  - 1.0e-05
  - 0.0
  - 0.0
  - 0.0
  - 0.0
  - 0.0
  - 0.0
  - 1.0e-05
  - 0.0
  - 0.0
  - 0.0
  - 0.0
  - 0.0
  - 0.0
  - 1000000000000.0
  - 0.0
  - 0.0
  - 0.0
  - 0.0
  - 0.0
  - 0.0
  - 1000000000000.0
  - 0.0
  - 0.0
  - 0.0
  - 0.0
  - 0.0
  - 0.0
  - 1000000000000.0
  - 0.0
  - 0.0
  - 0.0
  - 0.0
  - 0.0
  - 0.0
  - 0.001
twist:
  twist:
    linear:
      x: -1.9004878614887276e-05
      y: 0.0001580226476377735
      z: 0.0
    angular:
      x: 0.0
      y: 0.0
      z: 4.559174899713548e-05
  covariance:
  - 1.0e-05
  - 0.0
  - 0.0
  - 0.0
  - 0.0
  - 0.0
  - 0.0
  - 1.0e-05
  - 0.0
  - 0.0
  - 0.0
  - 0.0
  - 0.0
  - 0.0
  - 1000000000000.0
  - 0.0
  - 0.0
  - 0.0
  - 0.0
  - 0.0
  - 0.0
  - 1000000000000.0
  - 0.0
  - 0.0
  - 0.0
  - 0.0
  - 0.0
  - 0.0
  - 1000000000000.0
  - 0.0
  - 0.0
  - 0.0
  - 0.0
  - 0.0
  - 0.0
  - 0.001
---
header:
  stamp:
    sec: 1014
    nanosec: 357000000
  frame_id: odom
child_frame_id: base_footprint
pose:
  pose:
    position:
      x: 0.07052457281330575
      y: -0.36961349391424864
      z: 0.008531186518230085
    orientation:
      x: 0.0021604888207208636
      y: 0.0018866795233828894
      z: -0.751380355509718
      w: 0.6598631176861769
  covariance:
  - 1.0e-05
  - 0.0
  - 0.0
  - 0.0
  - 0.0
  - 0.0
  - 0.0
  - 1.0e-05
  - 0.0
  - 0.0
  - 0.0
  - 0.0
  - 0.0
  - 0.0
  - 1000000000000.0
  - 0.0
  - 0.0
  - 0.0
  - 0.0
  - 0.0
  - 0.0
  - 1000000000000.0
  - 0.0
  - 0.0
  - 0.0
  - 0.0
  - 0.0
  - 0.0
  - 1000000000000.0
  - 0.0
  - 0.0
  - 0.0
  - 0.0
  - 0.0
  - 0.0
  - 0.001
twist:
  twist:
    linear:
      x: -2.811076724238052e-05
      y: 0.00022606950184019857
      z: 0.0
    angular:
      x: 0.0
      y: 0.0
      z: 4.501694386544532e-05
  covariance:
  - 1.0e-05
  - 0.0
  - 0.0
  - 0.0
  - 0.0
  - 0.0
  - 0.0
  - 1.0e-05
  - 0.0
  - 0.0
  - 0.0
  - 0.0
  - 0.0
  - 0.0
  - 1000000000000.0
  - 0.0
  - 0.0
  - 0.0
  - 0.0
  - 0.0
  - 0.0
  - 1000000000000.0
  - 0.0
  - 0.0
  - 0.0
  - 0.0
  - 0.0
  - 0.0
  - 1000000000000.0
  - 0.0
  - 0.0
  - 0.0
  - 0.0
  - 0.0
  - 0.0
  - 0.001
---
header:
  stamp:
    sec: 1014
    nanosec: 391000000
  frame_id: odom
child_frame_id: base_footprint
pose:
  pose:
    position:
      x: 0.07052457120349095
      y: -0.3696134678902065
      z: 0.008527521135402078
    orientation:
      x: 0.002159847378386057
      y: 0.0018861143656245078
      z: -0.7513800176463994
      w: 0.6598635061235002
  covariance:
  - 1.0e-05
  - 0.0
  - 0.0
  - 0.0
  - 0.0
  - 0.0
  - 0.0
  - 1.0e-05
  - 0.0
  - 0.0
  - 0.0
  - 0.0
  - 0.0
  - 0.0
  - 1000000000000.0
  - 0.0
  - 0.0
  - 0.0
  - 0.0
  - 0.0
  - 0.0
  - 1000000000000.0
  - 0.0
  - 0.0
  - 0.0
  - 0.0
  - 0.0
  - 0.0
  - 1000000000000.0
  - 0.0
  - 0.0
  - 0.0
  - 0.0
  - 0.0
  - 0.0
  - 0.001
twist:
  twist:
    linear:
      x: -2.160220896916813e-05
      y: 0.00015937549786135204
      z: 0.0
    angular:
      x: 0.0
      y: 0.0
      z: 4.934552816318162e-05
  covariance:
  - 1.0e-05
  - 0.0
  - 0.0
  - 0.0
  - 0.0
  - 0.0
  - 0.0
  - 1.0e-05
  - 0.0
  - 0.0
  - 0.0
  - 0.0
  - 0.0
  - 0.0
  - 1000000000000.0
  - 0.0
  - 0.0
  - 0.0
  - 0.0
  - 0.0
  - 0.0
  - 1000000000000.0
  - 0.0
  - 0.0
  - 0.0
  - 0.0
  - 0.0
  - 0.0
  - 1000000000000.0
  - 0.0
  - 0.0
  - 0.0
  - 0.0
  - 0.0
  - 0.0
  - 0.001
---
header:
  stamp:
    sec: 1014
    nanosec: 425000000
  frame_id: odom
child_frame_id: base_footprint
pose:
  pose:
    position:
      x: 0.0705245578879451
      y: -0.36961346178151144
      z: 0.008534832492396147
    orientation:
      x: 0.0021596297145917882
      y: 0.0018859238871233967
      z: -0.7513796791723707
      w: 0.6598638927971535
  covariance:
  - 1.0e-05
  - 0.0
  - 0.0
  - 0.0
  - 0.0
  - 0.0
  - 0.0
  - 1.0e-05
  - 0.0
  - 0.0
  - 0.0
  - 0.0
  - 0.0
  - 0.0
  - 1000000000000.0
  - 0.0
  - 0.0
  - 0.0
  - 0.0
  - 0.0
  - 0.0
  - 1000000000000.0
  - 0.0
  - 0.0
  - 0.0
  - 0.0
  - 0.0
  - 0.0
  - 1000000000000.0
  - 0.0
  - 0.0
  - 0.0
  - 0.0
  - 0.0
  - 0.0
  - 0.001
twist:
  twist:
    linear:
      x: -2.4013575468674607e-05
      y: 0.00020749092262228758
      z: 0.0
    angular:
      x: 0.0
      y: 0.0
      z: 4.182194863961828e-05
  covariance:
  - 1.0e-05
  - 0.0
  - 0.0
  - 0.0
  - 0.0
  - 0.0
  - 0.0
  - 1.0e-05
  - 0.0
  - 0.0
  - 0.0
  - 0.0
  - 0.0
  - 0.0
  - 1000000000000.0
  - 0.0
  - 0.0
  - 0.0
  - 0.0
  - 0.0
  - 0.0
  - 1000000000000.0
  - 0.0
  - 0.0
  - 0.0
  - 0.0
  - 0.0
  - 0.0
  - 1000000000000.0
  - 0.0
  - 0.0
  - 0.0
  - 0.0
  - 0.0
  - 0.0
  - 0.001
---
header:
  stamp:
    sec: 1014
    nanosec: 459000000
  frame_id: odom
child_frame_id: base_footprint
pose:
  pose:
    position:
      x: 0.0705245561467329
      y: -0.36961343408287917
      z: 0.008531806391455924
    orientation:
      x: 0.0021588719882918543
      y: 0.001885260683802145
      z: -0.7513793478799562
      w: 0.659864274410567
  covariance:
  - 1.0e-05
  - 0.0
  - 0.0
  - 0.0
  - 0.0
  - 0.0
  - 0.0
  - 1.0e-05
  - 0.0
  - 0.0
  - 0.0
  - 0.0
  - 0.0
  - 0.0
  - 1000000000000.0
  - 0.0
  - 0.0
  - 0.0
  - 0.0
  - 0.0
  - 0.0
  - 1000000000000.0
  - 0.0
  - 0.0
  - 0.0
  - 0.0
  - 0.0
  - 0.0
  - 1000000000000.0
  - 0.0
  - 0.0
  - 0.0
  - 0.0
  - 0.0
  - 0.0
  - 0.001
twist:
  twist:
    linear:
      x: -1.879424176120936e-05
      y: 0.0001556603065179926
      z: 0.0
    angular:
      x: 0.0
      y: 0.0
      z: 4.465357041233007e-05
  covariance:
  - 1.0e-05
  - 0.0
  - 0.0
  - 0.0
  - 0.0
  - 0.0
  - 0.0
  - 1.0e-05
  - 0.0
  - 0.0
  - 0.0
  - 0.0
  - 0.0
  - 0.0
  - 1000000000000.0
  - 0.0
  - 0.0
  - 0.0
  - 0.0
  - 0.0
  - 0.0
  - 1000000000000.0
  - 0.0
  - 0.0
  - 0.0
  - 0.0
  - 0.0
  - 0.0
  - 1000000000000.0
  - 0.0
  - 0.0
  - 0.0
  - 0.0
  - 0.0
  - 0.0
  - 0.001
---
header:
  stamp:
    sec: 1014
    nanosec: 493000000
  frame_id: odom
child_frame_id: base_footprint
pose:
  pose:
    position:
      x: 0.07052456076468751
      y: -0.3696134236477827
      z: 0.008529543068052066
    orientation:
      x: 0.0021586746193101363
      y: 0.0018850850659694082
      z: -0.7513790099543053
      w: 0.6598646603495828
  covariance:
  - 1.0e-05
  - 0.0
  - 0.0
  - 0.0
  - 0.0
  - 0.0
  - 0.0
  - 1.0e-05
  - 0.0
  - 0.0
  - 0.0
  - 0.0
  - 0.0
  - 0.0
  - 1000000000000.0
  - 0.0
  - 0.0
  - 0.0
  - 0.0
  - 0.0
  - 0.0
  - 1000000000000.0
  - 0.0
  - 0.0
  - 0.0
  - 0.0
  - 0.0
  - 0.0
  - 1000000000000.0
  - 0.0
  - 0.0
  - 0.0
  - 0.0
  - 0.0
  - 0.0
  - 0.001
twist:
  twist:
    linear:
      x: -2.062113179004178e-05
      y: 0.00015706838915761378
      z: 0.0
    angular:
      x: 0.0
      y: 0.0
      z: 4.890380628065574e-05
  covariance:
  - 1.0e-05
  - 0.0
  - 0.0
  - 0.0
  - 0.0
  - 0.0
  - 0.0
  - 1.0e-05
  - 0.0
  - 0.0
  - 0.0
  - 0.0
  - 0.0
  - 0.0
  - 1000000000000.0
  - 0.0
  - 0.0
  - 0.0
  - 0.0
  - 0.0
  - 0.0
  - 1000000000000.0
  - 0.0
  - 0.0
  - 0.0
  - 0.0
  - 0.0
  - 0.0
  - 1000000000000.0
  - 0.0
  - 0.0
  - 0.0
  - 0.0
  - 0.0
  - 0.0
  - 0.001
---
header:
  stamp:
    sec: 1014
    nanosec: 527000000
  frame_id: odom
child_frame_id: base_footprint
pose:
  pose:
    position:
      x: 0.07052456492650716
      y: -0.3696134234676932
      z: 0.008528681782798964
    orientation:
      x: 0.002158870537815234
      y: 0.001885249824679177
      z: -0.7513786736868585
      w: 0.6598650421409493
  covariance:
  - 1.0e-05
  - 0.0
  - 0.0
  - 0.0
  - 0.0
  - 0.0
  - 0.0
  - 1.0e-05
  - 0.0
  - 0.0
  - 0.0
  - 0.0
  - 0.0
  - 0.0
  - 1000000000000.0
  - 0.0
  - 0.0
  - 0.0
  - 0.0
  - 0.0
  - 0.0
  - 1000000000000.0
  - 0.0
  - 0.0
  - 0.0
  - 0.0
  - 0.0
  - 0.0
  - 1000000000000.0
  - 0.0
  - 0.0
  - 0.0
  - 0.0
  - 0.0
  - 0.0
  - 0.001
twist:
  twist:
    linear:
      x: -2.2453258794613608e-05
      y: 0.00016744047050944397
      z: 0.0
    angular:
      x: 0.0
      y: 0.0
      z: 4.720725626536406e-05
  covariance:
  - 1.0e-05
  - 0.0
  - 0.0
  - 0.0
  - 0.0
  - 0.0
  - 0.0
  - 1.0e-05
  - 0.0
  - 0.0
  - 0.0
  - 0.0
  - 0.0
  - 0.0
  - 1000000000000.0
  - 0.0
  - 0.0
  - 0.0
  - 0.0
  - 0.0
  - 0.0
  - 1000000000000.0
  - 0.0
  - 0.0
  - 0.0
  - 0.0
  - 0.0
  - 0.0
  - 1000000000000.0
  - 0.0
  - 0.0
  - 0.0
  - 0.0
  - 0.0
  - 0.0
  - 0.001
---
header:
  stamp:
    sec: 1014
    nanosec: 561000000
  frame_id: odom
child_frame_id: base_footprint
pose:
  pose:
    position:
      x: 0.07052457240728031
      y: -0.36961343971557625
      z: 0.00853018199269873
    orientation:
      x: 0.002159456854092482
      y: 0.0018857533898522627
      z: -0.7513783473469688
      w: 0.6598654103818339
  covariance:
  - 1.0e-05
  - 0.0
  - 0.0
  - 0.0
  - 0.0
  - 0.0
  - 0.0
  - 1.0e-05
  - 0.0
  - 0.0
  - 0.0
  - 0.0
  - 0.0
  - 0.0
  - 1000000000000.0
  - 0.0
  - 0.0
  - 0.0
  - 0.0
  - 0.0
  - 0.0
  - 1000000000000.0
  - 0.0
  - 0.0
  - 0.0
  - 0.0
  - 0.0
  - 0.0
  - 1000000000000.0
  - 0.0
  - 0.0
  - 0.0
  - 0.0
  - 0.0
  - 0.0
  - 0.001
twist:
  twist:
    linear:
      x: -2.7163382614287655e-05
      y: 0.000214461860128682
      z: 0.0
    angular:
      x: 0.0
      y: 0.0
      z: 4.6467033118130065e-05
  covariance:
  - 1.0e-05
  - 0.0
  - 0.0
  - 0.0
  - 0.0
  - 0.0
  - 0.0
  - 1.0e-05
  - 0.0
  - 0.0
  - 0.0
  - 0.0
  - 0.0
  - 0.0
  - 1000000000000.0
  - 0.0
  - 0.0
  - 0.0
  - 0.0
  - 0.0
  - 0.0
  - 1000000000000.0
  - 0.0
  - 0.0
  - 0.0
  - 0.0
  - 0.0
  - 0.0
  - 1000000000000.0
  - 0.0
  - 0.0
  - 0.0
  - 0.0
  - 0.0
  - 0.0
  - 0.001
---
header:
  stamp:
    sec: 1014
    nanosec: 595000000
  frame_id: odom
child_frame_id: base_footprint
pose:
  pose:
    position:
      x: 0.07052454597152415
      y: -0.3696134597812795
      z: 0.00853386249154167
    orientation:
      x: 0.002160376868211124
      y: 0.0018865481545366418
      z: -0.7513780125848931
      w: 0.6598657862867449
  covariance:
  - 1.0e-05
  - 0.0
  - 0.0
  - 0.0
  - 0.0
  - 0.0
  - 0.0
  - 1.0e-05
  - 0.0
  - 0.0
  - 0.0
  - 0.0
  - 0.0
  - 0.0
  - 1000000000000.0
  - 0.0
  - 0.0
  - 0.0
  - 0.0
  - 0.0
  - 0.0
  - 1000000000000.0
  - 0.0
  - 0.0
  - 0.0
  - 0.0
  - 0.0
  - 0.0
  - 1000000000000.0
  - 0.0
  - 0.0
  - 0.0
  - 0.0
  - 0.0
  - 0.0
  - 0.001
twist:
  twist:
    linear:
      x: -2.3234627213019398e-05
      y: 0.00020859136839959286
      z: 0.0
    angular:
      x: 0.0
      y: 0.0
      z: 4.3227610077265085e-05
  covariance:
  - 1.0e-05
  - 0.0
  - 0.0
  - 0.0
  - 0.0
  - 0.0
  - 0.0
  - 1.0e-05
  - 0.0
  - 0.0
  - 0.0
  - 0.0
  - 0.0
  - 0.0
  - 1000000000000.0
  - 0.0
  - 0.0
  - 0.0
  - 0.0
  - 0.0
  - 0.0
  - 1000000000000.0
  - 0.0
  - 0.0
  - 0.0
  - 0.0
  - 0.0
  - 0.0
  - 1000000000000.0
  - 0.0
  - 0.0
  - 0.0
  - 0.0
  - 0.0
  - 0.0
  - 0.001
---
header:
  stamp:
    sec: 1014
    nanosec: 629000000
  frame_id: odom
child_frame_id: base_footprint
pose:
  pose:
    position:
      x: 0.07052456565346715
      y: -0.36961345103866144
      z: 0.008525825467707408
    orientation:
      x: 0.0021603576107064714
      y: 0.0018865192844225102
      z: -0.7513776773982821
      w: 0.6598661681034622
  covariance:
  - 1.0e-05
  - 0.0
  - 0.0
  - 0.0
  - 0.0
  - 0.0
  - 0.0
  - 1.0e-05
  - 0.0
  - 0.0
  - 0.0
  - 0.0
  - 0.0
  - 0.0
  - 1000000000000.0
  - 0.0
  - 0.0
  - 0.0
  - 0.0
  - 0.0
  - 0.0
  - 1000000000000.0
  - 0.0
  - 0.0
  - 0.0
  - 0.0
  - 0.0
  - 0.0
  - 1000000000000.0
  - 0.0
  - 0.0
  - 0.0
  - 0.0
  - 0.0
  - 0.0
  - 0.001
twist:
  twist:
    linear:
      x: -2.3422041385922518e-05
      y: 0.00016995931962364975
      z: 0.0
    angular:
      x: 0.0
      y: 0.0
      z: 4.874759434332461e-05
  covariance:
  - 1.0e-05
  - 0.0
  - 0.0
  - 0.0
  - 0.0
  - 0.0
  - 0.0
  - 1.0e-05
  - 0.0
  - 0.0
  - 0.0
  - 0.0
  - 0.0
  - 0.0
  - 1000000000000.0
  - 0.0
  - 0.0
  - 0.0
  - 0.0
  - 0.0
  - 0.0
  - 1000000000000.0
  - 0.0
  - 0.0
  - 0.0
  - 0.0
  - 0.0
  - 0.0
  - 1000000000000.0
  - 0.0
  - 0.0
  - 0.0
  - 0.0
  - 0.0
  - 0.0
  - 0.001
---
header:
  stamp:
    sec: 1014
    nanosec: 663000000
  frame_id: odom
child_frame_id: base_footprint
pose:
  pose:
    position:
      x: 0.07052454319771152
      y: -0.36961344484446945
      z: 0.008530458118036835
    orientation:
      x: 0.0021602026435035802
      y: 0.0018863778579781543
      z: -0.7513773508206342
      w: 0.6598665408829892
  covariance:
  - 1.0e-05
  - 0.0
  - 0.0
  - 0.0
  - 0.0
  - 0.0
  - 0.0
  - 1.0e-05
  - 0.0
  - 0.0
  - 0.0
  - 0.0
  - 0.0
  - 0.0
  - 1000000000000.0
  - 0.0
  - 0.0
  - 0.0
  - 0.0
  - 0.0
  - 0.0
  - 1000000000000.0
  - 0.0
  - 0.0
  - 0.0
  - 0.0
  - 0.0
  - 0.0
  - 1000000000000.0
  - 0.0
  - 0.0
  - 0.0
  - 0.0
  - 0.0
  - 0.0
  - 0.001
twist:
  twist:
    linear:
      x: -1.8308215757036747e-05
      y: 0.00015481764144757105
      z: 0.0
    angular:
      x: 0.0
      y: 0.0
      z: 4.486622282030669e-05
  covariance:
  - 1.0e-05
  - 0.0
  - 0.0
  - 0.0
  - 0.0
  - 0.0
  - 0.0
  - 1.0e-05
  - 0.0
  - 0.0
  - 0.0
  - 0.0
  - 0.0
  - 0.0
  - 1000000000000.0
  - 0.0
  - 0.0
  - 0.0
  - 0.0
  - 0.0
  - 0.0
  - 1000000000000.0
  - 0.0
  - 0.0
  - 0.0
  - 0.0
  - 0.0
  - 0.0
  - 1000000000000.0
  - 0.0
  - 0.0
  - 0.0
  - 0.0
  - 0.0
  - 0.0
  - 0.001
---
header:
  stamp:
    sec: 1014
    nanosec: 697000000
  frame_id: odom
child_frame_id: base_footprint
pose:
  pose:
    position:
      x: 0.07052457183415092
      y: -0.3696134376574043
      z: 0.008527753050101295
    orientation:
      x: 0.0021599886430013525
      y: 0.0018861894769205481
      z: -0.7513770301800384
      w: 0.6598669072291357
  covariance:
  - 1.0e-05
  - 0.0
  - 0.0
  - 0.0
  - 0.0
  - 0.0
  - 0.0
  - 1.0e-05
  - 0.0
  - 0.0
  - 0.0
  - 0.0
  - 0.0
  - 0.0
  - 1000000000000.0
  - 0.0
  - 0.0
  - 0.0
  - 0.0
  - 0.0
  - 0.0
  - 1000000000000.0
  - 0.0
  - 0.0
  - 0.0
  - 0.0
  - 0.0
  - 0.0
  - 1000000000000.0
  - 0.0
  - 0.0
  - 0.0
  - 0.0
  - 0.0
  - 0.0
  - 0.001
twist:
  twist:
    linear:
      x: -2.9329407574347973e-05
      y: 0.00021943497403953012
      z: 0.0
    angular:
      x: 0.0
      y: 0.0
      z: 5.041168809952761e-05
  covariance:
  - 1.0e-05
  - 0.0
  - 0.0
  - 0.0
  - 0.0
  - 0.0
  - 0.0
  - 1.0e-05
  - 0.0
  - 0.0
  - 0.0
  - 0.0
  - 0.0
  - 0.0
  - 1000000000000.0
  - 0.0
  - 0.0
  - 0.0
  - 0.0
  - 0.0
  - 0.0
  - 1000000000000.0
  - 0.0
  - 0.0
  - 0.0
  - 0.0
  - 0.0
  - 0.0
  - 1000000000000.0
  - 0.0
  - 0.0
  - 0.0
  - 0.0
  - 0.0
  - 0.0
  - 0.001
---
header:
  stamp:
    sec: 1014
    nanosec: 731000000
  frame_id: odom
child_frame_id: base_footprint
pose:
  pose:
    position:
      x: 0.07052453843557352
      y: -0.3696134140775021
      z: 0.008531870557293167
    orientation:
      x: 0.0021593773930530767
      y: 0.0018856546595873642
      z: -0.7513766787414494
      w: 0.6598673109339845
  covariance:
  - 1.0e-05
  - 0.0
  - 0.0
  - 0.0
  - 0.0
  - 0.0
  - 0.0
  - 1.0e-05
  - 0.0
  - 0.0
  - 0.0
  - 0.0
  - 0.0
  - 0.0
  - 1000000000000.0
  - 0.0
  - 0.0
  - 0.0
  - 0.0
  - 0.0
  - 0.0
  - 1000000000000.0
  - 0.0
  - 0.0
  - 0.0
  - 0.0
  - 0.0
  - 0.0
  - 1000000000000.0
  - 0.0
  - 0.0
  - 0.0
  - 0.0
  - 0.0
  - 0.0
  - 0.001
twist:
  twist:
    linear:
      x: -1.8543487869220068e-05
      y: 0.00015380344938467137
      z: 0.0
    angular:
      x: 0.0
      y: 0.0
      z: 4.39534007141026e-05
  covariance:
  - 1.0e-05
  - 0.0
  - 0.0
  - 0.0
  - 0.0
  - 0.0
  - 0.0
  - 1.0e-05
  - 0.0
  - 0.0
  - 0.0
  - 0.0
  - 0.0
  - 0.0
  - 1000000000000.0
  - 0.0
  - 0.0
  - 0.0
  - 0.0
  - 0.0
  - 0.0
  - 1000000000000.0
  - 0.0
  - 0.0
  - 0.0
  - 0.0
  - 0.0
  - 0.0
  - 1000000000000.0
  - 0.0
  - 0.0
  - 0.0
  - 0.0
  - 0.0
  - 0.0
  - 0.001
---
header:
  stamp:
    sec: 1014
    nanosec: 765000000
  frame_id: odom
child_frame_id: base_footprint
pose:
  pose:
    position:
      x: 0.07052454296791966
      y: -0.36961340321354036
      z: 0.008529550154361902
    orientation:
      x: 0.0021591682477090763
      y: 0.001885470564285246
      z: -0.7513763523749779
      w: 0.6598676837706953
  covariance:
  - 1.0e-05
  - 0.0
  - 0.0
  - 0.0
  - 0.0
  - 0.0
  - 0.0
  - 1.0e-05
  - 0.0
  - 0.0
  - 0.0
  - 0.0
  - 0.0
  - 0.0
  - 1000000000000.0
  - 0.0
  - 0.0
  - 0.0
  - 0.0
  - 0.0
  - 0.0
  - 1000000000000.0
  - 0.0
  - 0.0
  - 0.0
  - 0.0
  - 0.0
  - 0.0
  - 1000000000000.0
  - 0.0
  - 0.0
  - 0.0
  - 0.0
  - 0.0
  - 0.0
  - 0.001
twist:
  twist:
    linear:
      x: -2.036352132135379e-05
      y: 0.00015512761413756515
      z: 0.0
    angular:
      x: 0.0
      y: 0.0
      z: 4.7856971809740865e-05
  covariance:
  - 1.0e-05
  - 0.0
  - 0.0
  - 0.0
  - 0.0
  - 0.0
  - 0.0
  - 1.0e-05
  - 0.0
  - 0.0
  - 0.0
  - 0.0
  - 0.0
  - 0.0
